{
  "Alabama": [
    {
      "name": "Blue Springs",
      "status": "town",
      "state": "Alabama",
      "slug": "blue-springs-alabama",
      "population": 79,
      "lat": 31.66128,
      "lon": -85.50744,
      "feature_class": "L",
      "county": null,
      "gnis_id": 4050985
    },
    {
      "name": "Coffee Springs",
      "status": "town",
      "state": "Alabama",
      "slug": "coffee-springs-alabama",
      "population": 211,
      "lat": 31.1664,
      "lon": -85.91031,
      "feature_class": "A",
      "county": null,
      "gnis_id": 7171530
    },
    {
      "name": "Double Springs",
      "status": "town",
      "state": "Alabama",
      "slug": "double-springs-alabama",
      "population": 1121,
      "lat": 34.01434,
      "lon": -86.00639,
      "feature_class": "P",
      "county": null,
      "gnis_id": 4063619
    },
    {
      "name": "Indian Springs Village",
      "status": "city",
      "state": "Alabama",
      "slug": "indian-springs-village-alabama",
      "population": 2551,
      "lat": 33.35539,
      "lon": -86.75443,
      "feature_class": "P",
      "county": null,
      "gnis_id": 4068933
    },
    {
      "name": "Magnolia Springs",
      "status": "town",
      "state": "Alabama",
      "slug": "magnolia-springs-alabama",
      "population": 853,
      "lat": 30.39943,
      "lon": -87.77623,
      "feature_class": "L",
      "county": null,
      "gnis_id": 11495839
    },
    {
      "name": "Springville",
      "status": "city",
      "state": "Alabama",
      "slug": "springville-alabama",
      "population": 5392,
      "lat": 33.77505,
      "lon": -86.47191,
      "feature_class": "P",
      "county": null,
      "gnis_id": 4091542
    },
    {
      "name": "Sylvan Springs",
      "status": "town",
      "state": "Alabama",
      "slug": "sylvan-springs-alabama",
      "population": 1613,
      "lat": 33.51566,
      "lon": -87.01499,
      "feature_class": "P",
      "county": null,
      "gnis_id": 4092689
    },
    {
      "name": "Talladega Springs",
      "status": "town",
      "state": "Alabama",
      "slug": "talladega-springs-alabama",
      "population": 146,
      "lat": 33.12151,
      "lon": -86.44331,
      "feature_class": "P",
      "county": null,
      "gnis_id": 4092817
    },
    {
      "name": "Union Springs",
      "status": "city",
      "state": "Alabama",
      "slug": "union-springs-alabama",
      "population": 3157,
      "lat": 32.14432,
      "lon": -85.71495,
      "feature_class": "P",
      "county": null,
      "gnis_id": 4094975
    }
  ],
  "Alaska": [
    {
      "name": "Tenakee Springs",
      "status": "city",
      "state": "Alaska",
      "slug": "tenakee-springs-alaska",
      "population": 112,
      "lat": 57.78083,
      "lon": -135.21889,
      "feature_class": "P",
      "county": null,
      "gnis_id": 5557890
    }
  ],
  "Arizona": [
    {
      "name": "Springerville",
      "status": "town",
      "state": "Arizona",
      "slug": "springerville-arizona",
      "population": 1723,
      "lat": 34.13113,
      "lon": -109.30816,
      "feature_class": "S",
      "county": null,
      "gnis_id": 5315529
    }
  ],
  "Arkansas": [
    {
      "name": "Black Springs",
      "status": "town",
      "state": "Arkansas",
      "slug": "black-springs-arkansas",
      "population": 93,
      "lat": 34.46121,
      "lon": -93.71269,
      "feature_class": "P",
      "county": null,
      "gnis_id": 4102096
    },
    {
      "name": "Cave Springs",
      "status": "city",
      "state": "Arkansas",
      "slug": "cave-springs-arkansas",
      "population": 6304,
      "lat": 36.26341,
      "lon": -94.23187,
      "feature_class": "P",
      "county": null,
      "gnis_id": 4104897
    },
    {
      "name": "Elm Springs",
      "status": "city",
      "state": "Arkansas",
      "slug": "elm-springs-arkansas",
      "population": 2872,
      "lat": 36.20619,
      "lon": -94.23437,
      "feature_class": "P",
      "county": null,
      "gnis_id": 4109927
    },
    {
      "name": "Eureka Springs",
      "status": "city",
      "state": "Arkansas",
      "slug": "eureka-springs-arkansas",
      "population": 2188,
      "lat": 36.40118,
      "lon": -93.73797,
      "feature_class": "P",
      "county": null,
      "gnis_id": 4110119
    },
    {
      "name": "Gum Springs",
      "status": "town",
      "state": "Arkansas",
      "slug": "gum-springs-arkansas",
      "population": 91,
      "lat": 35.21175,
      "lon": -91.73708,
      "feature_class": "S",
      "county": null,
      "gnis_id": 4130438
    },
    {
      "name": "Heber Springs",
      "status": "city",
      "state": "Arkansas",
      "slug": "heber-springs-arkansas",
      "population": 7313,
      "lat": 35.49147,
      "lon": -92.03126,
      "feature_class": "P",
      "county": null,
      "gnis_id": 4114225
    },
    {
      "name": "Hot Springs",
      "status": "city",
      "state": "Arkansas",
      "slug": "hot-springs-arkansas",
      "population": 37971,
      "lat": 34.5037,
      "lon": -93.05518,
      "feature_class": "P",
      "county": null,
      "gnis_id": 4115412
    },
    {
      "name": "Mammoth Spring",
      "status": "city",
      "state": "Arkansas",
      "slug": "mammoth-spring-arkansas",
      "population": 948,
      "lat": 36.49562,
      "lon": -91.5407,
      "feature_class": "P",
      "county": null,
      "gnis_id": 4120398
    },
    {
      "name": "Mineral Springs",
      "status": "city",
      "state": "Arkansas",
      "slug": "mineral-springs-arkansas",
      "population": 1045,
      "lat": 33.87512,
      "lon": -93.9138,
      "feature_class": "P",
      "county": null,
      "gnis_id": 4121792
    },
    {
      "name": "Ravenden Springs",
      "status": "town",
      "state": "Arkansas",
      "slug": "ravenden-springs-arkansas",
      "population": 122,
      "lat": 36.31645,
      "lon": -91.22263,
      "feature_class": "P",
      "county": null,
      "gnis_id": 4127924
    },
    {
      "name": "Siloam Springs",
      "status": "city",
      "state": "Arkansas",
      "slug": "siloam-springs-arkansas",
      "population": 20075,
      "lat": 36.18814,
      "lon": -94.5405,
      "feature_class": "P",
      "county": null,
      "gnis_id": 4131116
    },
    {
      "name": "Springdale",
      "status": "city",
      "state": "Arkansas",
      "slug": "springdale-arkansas",
      "population": 89368,
      "lat": 36.18674,
      "lon": -94.12881,
      "feature_class": "P",
      "county": null,
      "gnis_id": 4132093
    },
    {
      "name": "Springtown",
      "status": "town",
      "state": "Arkansas",
      "slug": "springtown-arkansas",
      "population": 89,
      "lat": 36.26091,
      "lon": -94.42327,
      "feature_class": "P",
      "county": null,
      "gnis_id": 4132127
    },
    {
      "name": "Sulphur Springs",
      "status": "city",
      "state": "Arkansas",
      "slug": "sulphur-springs-arkansas",
      "population": 475,
      "lat": 36.48341,
      "lon": -94.45855,
      "feature_class": "P",
      "county": null,
      "gnis_id": 4132771
    },
    {
      "name": "Valley Springs",
      "status": "town",
      "state": "Arkansas",
      "slug": "valley-springs-arkansas",
      "population": 182,
      "lat": 34.5037,
      "lon": -93.05518,
      "feature_class": "P",
      "county": null,
      "gnis_id": 4115412
    },
    {
      "name": "Whelen Springs",
      "status": "town",
      "state": "Arkansas",
      "slug": "whelen-springs-arkansas",
      "population": 44,
      "lat": 33.83094,
      "lon": -93.12628,
      "feature_class": "P",
      "county": null,
      "gnis_id": 4136068
    }
  ],
  "California": [
    {
      "name": "Desert Hot Springs",
      "status": "city",
      "state": "California",
      "slug": "desert-hot-springs-california",
      "population": 33917,
      "lat": 33.96173,
      "lon": -116.50353,
      "feature_class": "P",
      "county": null,
      "gnis_id": 5342710
    },
    {
      "name": "Palm Springs",
      "status": "city",
      "state": "California",
      "slug": "palm-springs-california",
      "population": 45453,
      "lat": 33.8303,
      "lon": -116.54529,
      "feature_class": "P",
      "county": null,
      "gnis_id": 5380668
    },
    {
      "name": "Santa Fe Springs",
      "status": "city",
      "state": "California",
      "slug": "santa-fe-springs-california",
      "population": 18683,
      "lat": 33.94724,
      "lon": -118.08535,
      "feature_class": "P",
      "county": null,
      "gnis_id": 5393128
    }
  ],
  "Colorado": [
    {
      "name": "Colorado Springs",
      "status": "city",
      "state": "Colorado",
      "slug": "colorado-springs-colorado",
      "population": 493554,
      "lat": 38.83388,
      "lon": -104.82136,
      "feature_class": "P",
      "county": null,
      "gnis_id": 5417598
    },
    {
      "name": "Glenwood Springs",
      "status": "city",
      "state": "Colorado",
      "slug": "glenwood-springs-colorado",
      "population": 10311,
      "lat": 39.55054,
      "lon": -107.32478,
      "feature_class": "P",
      "county": null,
      "gnis_id": 5423092
    },
    {
      "name": "Hot Sulphur Springs",
      "status": "town",
      "state": "Colorado",
      "slug": "hot-sulphur-springs-colorado",
      "population": 654,
      "lat": 40.07304,
      "lon": -106.1028,
      "feature_class": "P",
      "county": null,
      "gnis_id": 5578171
    },
    {
      "name": "Idaho Springs",
      "status": "city",
      "state": "Colorado",
      "slug": "idaho-springs-colorado",
      "population": 1699,
      "lat": 39.74249,
      "lon": -105.51361,
      "feature_class": "P",
      "county": null,
      "gnis_id": 5425911
    },
    {
      "name": "Manitou Springs",
      "status": "city",
      "state": "Colorado",
      "slug": "manitou-springs-colorado",
      "population": 4607,
      "lat": 38.85971,
      "lon": -104.9172,
      "feature_class": "P",
      "county": null,
      "gnis_id": 5430023
    },
    {
      "name": "Olney Springs",
      "status": "town",
      "state": "Colorado",
      "slug": "olney-springs-colorado",
      "population": 295,
      "lat": 38.16612,
      "lon": -103.94468,
      "feature_class": "P",
      "county": null,
      "gnis_id": 5433470
    },
    {
      "name": "Pagosa Springs",
      "status": "town",
      "state": "Colorado",
      "slug": "pagosa-springs-colorado",
      "population": 1793,
      "lat": 37.26945,
      "lon": -107.00976,
      "feature_class": "P",
      "county": null,
      "gnis_id": 5433784
    },
    {
      "name": "Poncha Springs",
      "status": "town",
      "state": "Colorado",
      "slug": "poncha-springs-colorado",
      "population": 1358,
      "lat": 38.51278,
      "lon": -106.07724,
      "feature_class": "P",
      "county": null,
      "gnis_id": 5435047
    },
    {
      "name": "Springfield",
      "status": "town",
      "state": "Colorado",
      "slug": "springfield-colorado",
      "population": 1298,
      "lat": 37.40835,
      "lon": -102.61436,
      "feature_class": "P",
      "county": null,
      "gnis_id": 5440032
    },
    {
      "name": "Steamboat Springs",
      "status": "city",
      "state": "Colorado",
      "slug": "steamboat-springs-colorado",
      "population": 13620,
      "lat": 40.48498,
      "lon": -106.83172,
      "feature_class": "P",
      "county": null,
      "gnis_id": 5582371
    }
  ],
  "Florida": [
    {
      "name": "Altamonte Springs",
      "status": "city",
      "state": "Florida",
      "slug": "altamonte-springs-florida",
      "population": 47261,
      "lat": 28.66111,
      "lon": -81.36562,
      "feature_class": "P",
      "county": null,
      "gnis_id": 4145941
    },
    {
      "name": "Bonita Springs",
      "status": "city",
      "state": "Florida",
      "slug": "bonita-springs-florida",
      "population": 57112,
      "lat": 26.33981,
      "lon": -81.7787,
      "feature_class": "P",
      "county": null,
      "gnis_id": 4148533
    },
    {
      "name": "Coral Springs",
      "status": "city",
      "state": "Florida",
      "slug": "coral-springs-florida",
      "population": 140808,
      "lat": 26.27119,
      "lon": -80.2706,
      "feature_class": "P",
      "county": null,
      "gnis_id": 4151909
    },
    {
      "name": "DeFuniak Springs",
      "status": "city",
      "state": "Florida",
      "slug": "defuniak-springs-florida",
      "population": 7048,
      "lat": 30.72102,
      "lon": -86.11522,
      "feature_class": "P",
      "county": null,
      "gnis_id": 4152888
    },
    {
      "name": "Fanning Springs",
      "status": "city",
      "state": "Florida",
      "slug": "fanning-springs-florida",
      "population": 1341,
      "lat": 29.59079,
      "lon": -82.92929,
      "feature_class": "P",
      "county": null,
      "gnis_id": 4154891
    },
    {
      "name": "Green Cove Springs",
      "status": "city",
      "state": "Florida",
      "slug": "green-cove-springs-florida",
      "population": 10087,
      "lat": 29.99191,
      "lon": -81.67815,
      "feature_class": "P",
      "county": null,
      "gnis_id": 4157427
    },
    {
      "name": "High Springs",
      "status": "city",
      "state": "Florida",
      "slug": "high-springs-florida",
      "population": 6806,
      "lat": 29.82691,
      "lon": -82.59678,
      "feature_class": "P",
      "county": null,
      "gnis_id": 4158595
    },
    {
      "name": "Miami Springs",
      "status": "city",
      "state": "Florida",
      "slug": "miami-springs-florida",
      "population": 13901,
      "lat": 26.27119,
      "lon": -80.2706,
      "feature_class": "P",
      "county": null,
      "gnis_id": 4151909
    },
    {
      "name": "Palm Springs",
      "status": "village",
      "state": "Florida",
      "slug": "palm-springs-florida",
      "population": 28548,
      "lat": 26.6359,
      "lon": -80.09615,
      "feature_class": "P",
      "county": null,
      "gnis_id": 4167583
    },
    {
      "name": "Springfield",
      "status": "city",
      "state": "Florida",
      "slug": "springfield-florida",
      "population": 8495,
      "lat": 30.15326,
      "lon": -85.61132,
      "feature_class": "P",
      "county": null,
      "gnis_id": 4173892
    },
    {
      "name": "Tarpon Springs",
      "status": "city",
      "state": "Florida",
      "slug": "tarpon-springs-florida",
      "population": 26168,
      "lat": 28.14612,
      "lon": -82.75677,
      "feature_class": "P",
      "county": null,
      "gnis_id": 4174855
    },
    {
      "name": "White Springs",
      "status": "town",
      "state": "Florida",
      "slug": "white-springs-florida",
      "population": 760,
      "lat": 30.32967,
      "lon": -82.75902,
      "feature_class": "P",
      "county": null,
      "gnis_id": 4178180
    },
    {
      "name": "Winter Springs",
      "status": "city",
      "state": "Florida",
      "slug": "winter-springs-florida",
      "population": 39822,
      "lat": 28.69889,
      "lon": -81.30812,
      "feature_class": "P",
      "county": null,
      "gnis_id": 4178573
    },
    {
      "name": "Worthington Springs",
      "status": "town",
      "state": "Florida",
      "slug": "worthington-springs-florida",
      "population": 380,
      "lat": 29.92941,
      "lon": -82.42345,
      "feature_class": "P",
      "county": null,
      "gnis_id": 4178774
    },
    {
      "name": "Zolfo Springs",
      "status": "town",
      "state": "Florida",
      "slug": "zolfo-springs-florida",
      "population": 1761,
      "lat": 27.49337,
      "lon": -81.79592,
      "feature_class": "P",
      "county": null,
      "gnis_id": 4178972
    }
  ],
  "Georgia": [
    {
      "name": "Cave Spring",
      "status": "city",
      "state": "Georgia",
      "slug": "cave-spring-georgia",
      "population": 1215,
      "lat": 34.1076,
      "lon": -85.33634,
      "feature_class": "P",
      "county": null,
      "gnis_id": 4186741
    },
    {
      "name": "Franklin Springs",
      "status": "city",
      "state": "Georgia",
      "slug": "franklin-springs-georgia",
      "population": 1181,
      "lat": 34.28483,
      "lon": -83.14432,
      "feature_class": "P",
      "county": null,
      "gnis_id": 4196122
    },
    {
      "name": "Holly Springs",
      "status": "city",
      "state": "Georgia",
      "slug": "holly-springs-georgia",
      "population": 20133,
      "lat": 34.17399,
      "lon": -84.50132,
      "feature_class": "P",
      "county": null,
      "gnis_id": 4201047
    },
    {
      "name": "Powder Springs",
      "status": "city",
      "state": "Georgia",
      "slug": "powder-springs-georgia",
      "population": 19632,
      "lat": 33.85955,
      "lon": -84.68382,
      "feature_class": "P",
      "county": null,
      "gnis_id": 4217214
    },
    {
      "name": "Sandy Springs",
      "status": "city",
      "state": "Georgia",
      "slug": "sandy-springs-georgia",
      "population": 105505,
      "lat": 33.749,
      "lon": -84.38798,
      "feature_class": "P",
      "county": null,
      "gnis_id": 4180439
    },
    {
      "name": "Springfield",
      "status": "city",
      "state": "Georgia",
      "slug": "springfield-georgia",
      "population": 3223,
      "lat": 33.85955,
      "lon": -84.68382,
      "feature_class": "P",
      "county": null,
      "gnis_id": 4217214
    },
    {
      "name": "Warm Springs",
      "status": "city",
      "state": "Georgia",
      "slug": "warm-springs-georgia",
      "population": 445,
      "lat": 32.89041,
      "lon": -84.68104,
      "feature_class": "P",
      "county": null,
      "gnis_id": 4229468
    }
  ],
  "Idaho": [
    {
      "name": "Lava Hot Springs",
      "status": "city",
      "state": "Idaho",
      "slug": "lava-hot-springs-idaho",
      "population": 375,
      "lat": 42.61936,
      "lon": -112.01107,
      "feature_class": "P",
      "county": null,
      "gnis_id": 5598333
    },
    {
      "name": "Moyie Springs",
      "status": "city",
      "state": "Idaho",
      "slug": "moyie-springs-idaho",
      "population": 1225,
      "lat": 48.72633,
      "lon": -116.18853,
      "feature_class": "P",
      "county": null,
      "gnis_id": 5601667
    },
    {
      "name": "Soda Springs",
      "status": "city",
      "state": "Idaho",
      "slug": "soda-springs-idaho",
      "population": 3162,
      "lat": 42.65437,
      "lon": -111.60467,
      "feature_class": "P",
      "county": null,
      "gnis_id": 5607916
    }
  ],
  "Illinois": [
    {
      "name": "Creal Springs",
      "status": "city",
      "state": "Illinois",
      "slug": "creal-springs-illinois",
      "population": 498,
      "lat": 37.61949,
      "lon": -88.83673,
      "feature_class": "P",
      "county": null,
      "gnis_id": 4236588
    },
    {
      "name": "Sailor Springs",
      "status": "village",
      "state": "Illinois",
      "slug": "sailor-springs-illinois",
      "population": 91,
      "lat": 38.76394,
      "lon": -88.3631,
      "feature_class": "P",
      "county": null,
      "gnis_id": 4248655
    },
    {
      "name": "Spring Bay",
      "status": "village",
      "state": "Illinois",
      "slug": "spring-bay-illinois",
      "population": 483,
      "lat": 40.82448,
      "lon": -89.52232,
      "feature_class": "P",
      "county": null,
      "gnis_id": 5281001
    },
    {
      "name": "Springerton",
      "status": "village",
      "state": "Illinois",
      "slug": "springerton-illinois",
      "population": 114,
      "lat": 38.17949,
      "lon": -88.35421,
      "feature_class": "P",
      "county": null,
      "gnis_id": 4250540
    },
    {
      "name": "Springfield",
      "status": "city",
      "state": "Illinois",
      "slug": "springfield-illinois",
      "population": 112949,
      "lat": 39.80172,
      "lon": -89.64371,
      "feature_class": "P",
      "county": null,
      "gnis_id": 4250542
    },
    {
      "name": "Spring Grove",
      "status": "village",
      "state": "Illinois",
      "slug": "spring-grove-illinois",
      "population": 5554,
      "lat": 42.44363,
      "lon": -88.23648,
      "feature_class": "P",
      "county": null,
      "gnis_id": 4912248
    },
    {
      "name": "Spring Valley",
      "status": "city",
      "state": "Illinois",
      "slug": "spring-valley-illinois",
      "population": 5404,
      "lat": 41.32754,
      "lon": -89.19981,
      "feature_class": "P",
      "county": null,
      "gnis_id": 4912303
    },
    {
      "name": "Taylor Springs",
      "status": "village",
      "state": "Illinois",
      "slug": "taylor-springs-illinois",
      "population": 725,
      "lat": 39.13088,
      "lon": -89.49203,
      "feature_class": "P",
      "county": null,
      "gnis_id": 4251138
    },
    {
      "name": "Western Springs",
      "status": "village",
      "state": "Illinois",
      "slug": "western-springs-illinois",
      "population": 13529,
      "lat": 41.80975,
      "lon": -87.90062,
      "feature_class": "P",
      "county": null,
      "gnis_id": 4916161
    },
    {
      "name": "Willow Springs",
      "status": "village",
      "state": "Illinois",
      "slug": "willow-springs-illinois",
      "population": 5793,
      "lat": 41.74087,
      "lon": -87.86033,
      "feature_class": "P",
      "county": null,
      "gnis_id": 4916698
    }
  ],
  "Indiana": [
    {
      "name": "Spring Grove",
      "status": "town",
      "state": "Indiana",
      "slug": "spring-grove-indiana",
      "population": 332,
      "lat": 39.84838,
      "lon": -84.89413,
      "feature_class": "P",
      "county": null,
      "gnis_id": 4265204
    },
    {
      "name": "Spring Hill",
      "status": "town",
      "state": "Indiana",
      "slug": "spring-hill-indiana",
      "population": 95,
      "lat": 39.41254,
      "lon": -87.37724,
      "feature_class": "P",
      "county": null,
      "gnis_id": 4265189
    },
    {
      "name": "Spring Lake",
      "status": "town",
      "state": "Indiana",
      "slug": "spring-lake-indiana",
      "population": 215,
      "lat": 41.50018,
      "lon": -85.37575,
      "feature_class": "H",
      "county": null,
      "gnis_id": 4926710
    },
    {
      "name": "Springport",
      "status": "town",
      "state": "Indiana",
      "slug": "springport-indiana",
      "population": 134,
      "lat": 40.04755,
      "lon": -85.39414,
      "feature_class": "P",
      "county": null,
      "gnis_id": 4926723
    },
    {
      "name": "Sulphur Springs",
      "status": "town",
      "state": "Indiana",
      "slug": "sulphur-springs-indiana",
      "population": 335,
      "lat": 40.00477,
      "lon": -85.44275,
      "feature_class": "P",
      "county": null,
      "gnis_id": 4926958
    },
    {
      "name": "West Baden Springs",
      "status": "town",
      "state": "Indiana",
      "slug": "west-baden-springs-indiana",
      "population": 646,
      "lat": 38.56533,
      "lon": -86.6111,
      "feature_class": "P",
      "county": null,
      "gnis_id": 4266771
    }
  ],
  "Iowa": [
    {
      "name": "College Springs",
      "status": "city",
      "state": "Iowa",
      "slug": "college-springs-iowa",
      "population": 172,
      "lat": 40.61916,
      "lon": -95.12081,
      "feature_class": "P",
      "county": null,
      "gnis_id": 4852250
    },
    {
      "name": "Lime Springs",
      "status": "city",
      "state": "Iowa",
      "slug": "lime-springs-iowa",
      "population": 467,
      "lat": 43.44886,
      "lon": -92.28073,
      "feature_class": "P",
      "county": null,
      "gnis_id": 4864732
    },
    {
      "name": "Nora Springs",
      "status": "city",
      "state": "Iowa",
      "slug": "nora-springs-iowa",
      "population": 1330,
      "lat": 43.14275,
      "lon": -93.00437,
      "feature_class": "P",
      "county": null,
      "gnis_id": 4869045
    },
    {
      "name": "Springbrook",
      "status": "city",
      "state": "Iowa",
      "slug": "springbrook-iowa",
      "population": 145,
      "lat": 42.16419,
      "lon": -90.47652,
      "feature_class": "P",
      "county": null,
      "gnis_id": 4877323
    },
    {
      "name": "Spring Hill",
      "status": "city",
      "state": "Iowa",
      "slug": "spring-hill-iowa",
      "population": 68,
      "lat": 41.41138,
      "lon": -93.64494,
      "feature_class": "P",
      "county": null,
      "gnis_id": 4877282
    },
    {
      "name": "Springville",
      "status": "city",
      "state": "Iowa",
      "slug": "springville-iowa",
      "population": 1161,
      "lat": 42.05945,
      "lon": -91.44267,
      "feature_class": "P",
      "county": null,
      "gnis_id": 4877352
    }
  ],
  "Kansas": [
    {
      "name": "Baxter Springs",
      "status": "city",
      "state": "Kansas",
      "slug": "baxter-springs-kansas",
      "population": 3844,
      "lat": 37.02368,
      "lon": -94.7355,
      "feature_class": "P",
      "county": null,
      "gnis_id": 4267978
    },
    {
      "name": "Bonner Springs",
      "status": "city",
      "state": "Kansas",
      "slug": "bonner-springs-kansas",
      "population": 7832,
      "lat": 39.05973,
      "lon": -94.88358,
      "feature_class": "P",
      "county": null,
      "gnis_id": 4268521
    },
    {
      "name": "Conway Springs",
      "status": "city",
      "state": "Kansas",
      "slug": "conway-springs-kansas",
      "population": 1135,
      "lat": 37.3903,
      "lon": -97.64227,
      "feature_class": "P",
      "county": null,
      "gnis_id": 4269887
    },
    {
      "name": "Geuda Springs",
      "status": "city",
      "state": "Kansas",
      "slug": "geuda-springs-kansas",
      "population": 154,
      "lat": 37.11419,
      "lon": -97.14921,
      "feature_class": "P",
      "county": null,
      "gnis_id": 4272037
    },
    {
      "name": "Lost Springs",
      "status": "city",
      "state": "Kansas",
      "slug": "lost-springs-kansas",
      "population": 56,
      "lat": 38.56612,
      "lon": -96.9664,
      "feature_class": "P",
      "county": null,
      "gnis_id": 4274825
    },
    {
      "name": "Russell Springs",
      "status": "city",
      "state": "Kansas",
      "slug": "russell-springs-kansas",
      "population": 27,
      "lat": 38.91334,
      "lon": -101.18155,
      "feature_class": "P",
      "county": null,
      "gnis_id": 5446326
    },
    {
      "name": "Sharon Springs",
      "status": "city",
      "state": "Kansas",
      "slug": "sharon-springs-kansas",
      "population": 733,
      "lat": 38.89779,
      "lon": -101.75212,
      "feature_class": "P",
      "county": null,
      "gnis_id": 5446453
    },
    {
      "name": "Spring Hill",
      "status": "city",
      "state": "Kansas",
      "slug": "spring-hill-kansas",
      "population": 10070,
      "lat": 38.74306,
      "lon": -94.82552,
      "feature_class": "P",
      "county": null,
      "gnis_id": 4279847
    }
  ],
  "Kentucky": [
    {
      "name": "Cold Spring",
      "status": "city",
      "state": "Kentucky",
      "slug": "cold-spring-kentucky",
      "population": 6499,
      "lat": 39.02173,
      "lon": -84.43994,
      "feature_class": "P",
      "county": null,
      "gnis_id": 4288230
    },
    {
      "name": "Crescent Springs",
      "status": "city",
      "state": "Kentucky",
      "slug": "crescent-springs-kentucky",
      "population": 4707,
      "lat": 39.05145,
      "lon": -84.58161,
      "feature_class": "P",
      "county": null,
      "gnis_id": 4289028
    },
    {
      "name": "Dawson Springs",
      "status": "city",
      "state": "Kentucky",
      "slug": "dawson-springs-kentucky",
      "population": 2254,
      "lat": 37.16727,
      "lon": -87.69251,
      "feature_class": "P",
      "county": null,
      "gnis_id": 4289606
    },
    {
      "name": "Green Spring",
      "status": "city",
      "state": "Kentucky",
      "slug": "green-spring-kentucky",
      "population": 726,
      "lat": 38.31618,
      "lon": -85.61385,
      "feature_class": "P",
      "county": null,
      "gnis_id": 4293427
    },
    {
      "name": "Plum Springs",
      "status": "city",
      "state": "Kentucky",
      "slug": "plum-springs-kentucky",
      "population": 549,
      "lat": 37.01838,
      "lon": -86.38138,
      "feature_class": "P",
      "county": null,
      "gnis_id": 4304735
    },
    {
      "name": "Russell Springs",
      "status": "city",
      "state": "Kentucky",
      "slug": "russell-springs-kentucky",
      "population": 2807,
      "lat": 37.05618,
      "lon": -85.08857,
      "feature_class": "P",
      "county": null,
      "gnis_id": 4307012
    },
    {
      "name": "Springfield",
      "status": "city",
      "state": "Kentucky",
      "slug": "springfield-kentucky",
      "population": 2970,
      "lat": 37.68534,
      "lon": -85.22218,
      "feature_class": "P",
      "county": null,
      "gnis_id": 4309329
    },
    {
      "name": "Spring Mill",
      "status": "city",
      "state": "Kentucky",
      "slug": "spring-mill-kentucky",
      "population": 298,
      "lat": 38.1434,
      "lon": -85.63079,
      "feature_class": "P",
      "county": null,
      "gnis_id": 4309316
    },
    {
      "name": "Spring Valley",
      "status": "city",
      "state": "Kentucky",
      "slug": "spring-valley-kentucky",
      "population": 687,
      "lat": 38.29701,
      "lon": -85.61135,
      "feature_class": "P",
      "county": null,
      "gnis_id": 4309320
    }
  ],
  "Louisiana": [
    {
      "name": "Abita Springs",
      "status": "town",
      "state": "Louisiana",
      "slug": "abita-springs-louisiana",
      "population": 2752,
      "lat": 30.47864,
      "lon": -90.04008,
      "feature_class": "P",
      "county": null,
      "gnis_id": 4314388
    },
    {
      "name": "Denham Springs",
      "status": "city",
      "state": "Louisiana",
      "slug": "denham-springs-louisiana",
      "population": 9321,
      "lat": 30.4874,
      "lon": -90.95753,
      "feature_class": "P",
      "county": null,
      "gnis_id": 4321988
    },
    {
      "name": "Krotz Springs",
      "status": "town",
      "state": "Louisiana",
      "slug": "krotz-springs-louisiana",
      "population": 875,
      "lat": 30.53686,
      "lon": -91.75289,
      "feature_class": "P",
      "county": null,
      "gnis_id": 4330019
    },
    {
      "name": "Springfield",
      "status": "town",
      "state": "Louisiana",
      "slug": "springfield-louisiana",
      "population": 456,
      "lat": 30.42908,
      "lon": -90.5487,
      "feature_class": "P",
      "county": null,
      "gnis_id": 4342415
    },
    {
      "name": "Springhill",
      "status": "city",
      "state": "Louisiana",
      "slug": "springhill-louisiana",
      "population": 4485,
      "lat": 33.00597,
      "lon": -93.46684,
      "feature_class": "P",
      "county": null,
      "gnis_id": 4342429
    }
  ],
  "Maryland": [
    {
      "name": "Clear Spring",
      "status": "town",
      "state": "Maryland",
      "slug": "clear-spring-maryland",
      "population": 375,
      "lat": 39.65621,
      "lon": -77.93166,
      "feature_class": "P",
      "county": null,
      "gnis_id": 4351742
    },
    {
      "name": "Mardela Springs",
      "status": "town",
      "state": "Maryland",
      "slug": "mardela-springs-maryland",
      "population": 354,
      "lat": 38.45984,
      "lon": -75.7591,
      "feature_class": "P",
      "county": null,
      "gnis_id": 4361657
    }
  ],
  "Massachusetts": [
    {
      "name": "Springfield",
      "status": "city",
      "state": "Massachusetts",
      "slug": "springfield-massachusetts",
      "population": 154888,
      "lat": 42.10148,
      "lon": -72.58981,
      "feature_class": "P",
      "county": null,
      "gnis_id": 4951788
    },
    {
      "name": "West Springfield Town",
      "status": "city",
      "state": "Massachusetts",
      "slug": "west-springfield-town-massachusetts",
      "population": 29028,
      "lat": 42.10704,
      "lon": -72.62037,
      "feature_class": "P",
      "county": null,
      "gnis_id": 4955089
    }
  ],
  "Michigan": [
    {
      "name": "Berrien Springs",
      "status": "village",
      "state": "Michigan",
      "slug": "berrien-springs-michigan",
      "population": 1786,
      "lat": 41.94643,
      "lon": -86.3389,
      "feature_class": "P",
      "county": null,
      "gnis_id": 4985761
    },
    {
      "name": "Cedar Springs",
      "status": "city",
      "state": "Michigan",
      "slug": "cedar-springs-michigan",
      "population": 3749,
      "lat": 43.22336,
      "lon": -85.55142,
      "feature_class": "P",
      "county": null,
      "gnis_id": 4988362
    },
    {
      "name": "Harbor Springs",
      "status": "city",
      "state": "Michigan",
      "slug": "harbor-springs-michigan",
      "population": 1262,
      "lat": 45.43168,
      "lon": -84.992,
      "feature_class": "P",
      "county": null,
      "gnis_id": 4995285
    },
    {
      "name": "Springfield",
      "status": "city",
      "state": "Michigan",
      "slug": "springfield-michigan",
      "population": 5267,
      "lat": 42.32643,
      "lon": -85.23916,
      "feature_class": "P",
      "county": null,
      "gnis_id": 5010917
    },
    {
      "name": "Spring Lake",
      "status": "village",
      "state": "Michigan",
      "slug": "spring-lake-michigan",
      "population": 2510,
      "lat": 43.07696,
      "lon": -86.197,
      "feature_class": "P",
      "county": null,
      "gnis_id": 5010856
    },
    {
      "name": "Springport",
      "status": "village",
      "state": "Michigan",
      "slug": "springport-michigan",
      "population": 823,
      "lat": 42.37837,
      "lon": -84.69859,
      "feature_class": "P",
      "county": null,
      "gnis_id": 5010899
    }
  ],
  "Minnesota": [
    {
      "name": "Cold Spring",
      "status": "city",
      "state": "Minnesota",
      "slug": "cold-spring-minnesota",
      "population": 4326,
      "lat": 45.4558,
      "lon": -94.42888,
      "feature_class": "P",
      "county": null,
      "gnis_id": 5021788
    },
    {
      "name": "Pine Springs",
      "status": "city",
      "state": "Minnesota",
      "slug": "pine-springs-minnesota",
      "population": 384,
      "lat": 45.0358,
      "lon": -92.95438,
      "feature_class": "P",
      "county": null,
      "gnis_id": 5041676
    },
    {
      "name": "Springfield",
      "status": "city",
      "state": "Minnesota",
      "slug": "springfield-minnesota",
      "population": 1995,
      "lat": 44.23885,
      "lon": -94.97582,
      "feature_class": "P",
      "county": null,
      "gnis_id": 5048394
    },
    {
      "name": "Spring Grove",
      "status": "city",
      "state": "Minnesota",
      "slug": "spring-grove-minnesota",
      "population": 1202,
      "lat": 43.56108,
      "lon": -91.63598,
      "feature_class": "P",
      "county": null,
      "gnis_id": 5048296
    },
    {
      "name": "Spring Hill",
      "status": "city",
      "state": "Minnesota",
      "slug": "spring-hill-minnesota",
      "population": 71,
      "lat": 45.52469,
      "lon": -94.82946,
      "feature_class": "P",
      "county": null,
      "gnis_id": 5048311
    },
    {
      "name": "Spring Lake Park",
      "status": "city",
      "state": "Minnesota",
      "slug": "spring-lake-park-minnesota",
      "population": 7083,
      "lat": 45.10774,
      "lon": -93.238,
      "feature_class": "P",
      "county": null,
      "gnis_id": 5048361
    },
    {
      "name": "Spring Park",
      "status": "city",
      "state": "Minnesota",
      "slug": "spring-park-minnesota",
      "population": 1641,
      "lat": 44.93524,
      "lon": -93.63218,
      "feature_class": "P",
      "county": null,
      "gnis_id": 5048371
    },
    {
      "name": "Spring Valley",
      "status": "city",
      "state": "Minnesota",
      "slug": "spring-valley-minnesota",
      "population": 2445,
      "lat": 43.68691,
      "lon": -92.38906,
      "feature_class": "P",
      "county": null,
      "gnis_id": 5048378
    }
  ],
  "Mississippi": [
    {
      "name": "Bay Springs",
      "status": "city",
      "state": "Mississippi",
      "slug": "bay-springs-mississippi",
      "population": 1488,
      "lat": 31.97904,
      "lon": -89.28728,
      "feature_class": "P",
      "county": null,
      "gnis_id": 4417212
    },
    {
      "name": "Blue Springs",
      "status": "village",
      "state": "Mississippi",
      "slug": "blue-springs-mississippi",
      "population": 439,
      "lat": 34.40177,
      "lon": -88.87284,
      "feature_class": "P",
      "county": null,
      "gnis_id": 4418819
    },
    {
      "name": "Crystal Springs",
      "status": "city",
      "state": "Mississippi",
      "slug": "crystal-springs-mississippi",
      "population": 4668,
      "lat": 31.98738,
      "lon": -90.35704,
      "feature_class": "P",
      "county": null,
      "gnis_id": 4423227
    },
    {
      "name": "Holly Springs",
      "status": "city",
      "state": "Mississippi",
      "slug": "holly-springs-mississippi",
      "population": 6472,
      "lat": 34.7676,
      "lon": -89.44869,
      "feature_class": "P",
      "county": null,
      "gnis_id": 4430104
    },
    {
      "name": "Ocean Springs",
      "status": "city",
      "state": "Mississippi",
      "slug": "ocean-springs-mississippi",
      "population": 18954,
      "lat": 30.41131,
      "lon": -88.82781,
      "feature_class": "P",
      "county": null,
      "gnis_id": 4439506
    },
    {
      "name": "Slate Springs",
      "status": "village",
      "state": "Mississippi",
      "slug": "slate-springs-mississippi",
      "population": 98,
      "lat": 33.74067,
      "lon": -89.37118,
      "feature_class": "P",
      "county": null,
      "gnis_id": 4446278
    }
  ],
  "Missouri": [
    {
      "name": "Blue Springs",
      "status": "city",
      "state": "Missouri",
      "slug": "blue-springs-missouri",
      "population": 61246,
      "lat": 39.01695,
      "lon": -94.28161,
      "feature_class": "P",
      "county": null,
      "gnis_id": 4377664
    },
    {
      "name": "Edgar Springs",
      "status": "city",
      "state": "Missouri",
      "slug": "edgar-springs-missouri",
      "population": 203,
      "lat": 37.70449,
      "lon": -91.86655,
      "feature_class": "P",
      "county": null,
      "gnis_id": 4385215
    },
    {
      "name": "El Dorado Springs",
      "status": "city",
      "state": "Missouri",
      "slug": "el-dorado-springs-missouri",
      "population": 3674,
      "lat": 37.87698,
      "lon": -94.02133,
      "feature_class": "P",
      "county": null,
      "gnis_id": 4385317
    },
    {
      "name": "Excelsior Springs",
      "status": "city",
      "state": "Missouri",
      "slug": "excelsior-springs-missouri",
      "population": 10727,
      "lat": 39.33917,
      "lon": -94.22606,
      "feature_class": "P",
      "county": null,
      "gnis_id": 4385966
    },
    {
      "name": "Jerico Springs",
      "status": "village",
      "state": "Missouri",
      "slug": "jerico-springs-missouri",
      "population": 169,
      "lat": 37.62226,
      "lon": -94.00855,
      "feature_class": "P",
      "county": null,
      "gnis_id": 4392459
    },
    {
      "name": "Lock Springs",
      "status": "village",
      "state": "Missouri",
      "slug": "lock-springs-missouri",
      "population": 40,
      "lat": 39.8489,
      "lon": -93.77744,
      "feature_class": "P",
      "county": null,
      "gnis_id": 4395917
    },
    {
      "name": "Mill Spring",
      "status": "village",
      "state": "Missouri",
      "slug": "mill-spring-missouri",
      "population": 158,
      "lat": 37.062,
      "lon": -90.68401,
      "feature_class": "P",
      "county": null,
      "gnis_id": 4398340
    },
    {
      "name": "Reeds Spring",
      "status": "city",
      "state": "Missouri",
      "slug": "reeds-spring-missouri",
      "population": 1224,
      "lat": 36.74978,
      "lon": -93.37796,
      "feature_class": "P",
      "county": null,
      "gnis_id": 4405358
    },
    {
      "name": "Springfield",
      "status": "city",
      "state": "Missouri",
      "slug": "springfield-missouri",
      "population": 170596,
      "lat": 37.21533,
      "lon": -93.29824,
      "feature_class": "P",
      "county": null,
      "gnis_id": 4409896
    },
    {
      "name": "Sweet Springs",
      "status": "city",
      "state": "Missouri",
      "slug": "sweet-springs-missouri",
      "population": 1331,
      "lat": 38.96363,
      "lon": -93.41493,
      "feature_class": "P",
      "county": null,
      "gnis_id": 4410978
    },
    {
      "name": "Weldon Spring",
      "status": "city",
      "state": "Missouri",
      "slug": "weldon-spring-missouri",
      "population": 5304,
      "lat": 38.67505,
      "lon": -90.76957,
      "feature_class": "L",
      "county": null,
      "gnis_id": 4413930
    },
    {
      "name": "Weldon Spring Heights",
      "status": "town",
      "state": "Missouri",
      "slug": "weldon-spring-heights-missouri",
      "population": 92,
      "lat": 38.70505,
      "lon": -90.68735,
      "feature_class": "P",
      "county": null,
      "gnis_id": 4413928
    },
    {
      "name": "Willow Springs",
      "status": "city",
      "state": "Missouri",
      "slug": "willow-springs-missouri",
      "population": 2219,
      "lat": 36.99228,
      "lon": -91.96987,
      "feature_class": "P",
      "county": null,
      "gnis_id": 4414959
    }
  ],
  "Montana": [
    {
      "name": "Hot Springs",
      "status": "town",
      "state": "Montana",
      "slug": "hot-springs-montana",
      "population": 623,
      "lat": 47.61419,
      "lon": -114.61217,
      "feature_class": "S",
      "county": null,
      "gnis_id": 5658169
    },
    {
      "name": "White Sulphur Springs",
      "status": "city",
      "state": "Montana",
      "slug": "white-sulphur-springs-montana",
      "population": 1021,
      "lat": 46.54828,
      "lon": -110.90216,
      "feature_class": "P",
      "county": null,
      "gnis_id": 5686092
    }
  ],
  "Nebraska": [
    {
      "name": "Big Springs",
      "status": "village",
      "state": "Nebraska",
      "slug": "big-springs-nebraska",
      "population": 405,
      "lat": 41.06138,
      "lon": -102.07435,
      "feature_class": "P",
      "county": null,
      "gnis_id": 5693635
    },
    {
      "name": "Blue Springs",
      "status": "city",
      "state": "Nebraska",
      "slug": "blue-springs-nebraska",
      "population": 278,
      "lat": 40.13945,
      "lon": -96.65919,
      "feature_class": "P",
      "county": null,
      "gnis_id": 5064334
    },
    {
      "name": "Hay Springs",
      "status": "village",
      "state": "Nebraska",
      "slug": "hay-springs-nebraska",
      "population": 572,
      "lat": 42.68386,
      "lon": -102.6899,
      "feature_class": "P",
      "county": null,
      "gnis_id": 5696028
    },
    {
      "name": "Springfield",
      "status": "city",
      "state": "Nebraska",
      "slug": "springfield-nebraska",
      "population": 1531,
      "lat": 41.08194,
      "lon": -96.13446,
      "feature_class": "P",
      "county": null,
      "gnis_id": 5079488
    },
    {
      "name": "Springview",
      "status": "village",
      "state": "Nebraska",
      "slug": "springview-nebraska",
      "population": 251,
      "lat": 42.82444,
      "lon": -99.74901,
      "feature_class": "P",
      "county": null,
      "gnis_id": 5079617
    }
  ],
  "New Jersey": [
    {
      "name": "Laurel Springs",
      "status": "borough",
      "state": "New Jersey",
      "slug": "laurel-springs-new-jersey",
      "population": 2003,
      "lat": 39.82428,
      "lon": -74.99767,
      "feature_class": "P",
      "county": null,
      "gnis_id": 4502687
    },
    {
      "name": "Spring Lake",
      "status": "borough",
      "state": "New Jersey",
      "slug": "spring-lake-new-jersey",
      "population": 2781,
      "lat": 40.15345,
      "lon": -74.02819,
      "feature_class": "P",
      "county": null,
      "gnis_id": 5104923
    },
    {
      "name": "Spring Lake Heights",
      "status": "borough",
      "state": "New Jersey",
      "slug": "spring-lake-heights-new-jersey",
      "population": 4859,
      "lat": 40.152,
      "lon": -74.039,
      "feature_class": "P",
      "county": null,
      "gnis_id": 5104930
    }
  ],
  "New Mexico": [
    {
      "name": "Jemez Springs",
      "status": "village",
      "state": "New Mexico",
      "slug": "jemez-springs-new-mexico",
      "population": 204,
      "lat": 35.76887,
      "lon": -106.69501,
      "feature_class": "P",
      "county": null,
      "gnis_id": 5473318
    },
    {
      "name": "Springer",
      "status": "town",
      "state": "New Mexico",
      "slug": "springer-new-mexico",
      "population": 929,
      "lat": 36.36114,
      "lon": -104.59527,
      "feature_class": "P",
      "county": null,
      "gnis_id": 5492762
    }
  ],
  "New York": [
    {
      "name": "Clifton Springs",
      "status": "village",
      "state": "New York",
      "slug": "clifton-springs-new-york",
      "population": 2168,
      "lat": 42.96173,
      "lon": -77.13998,
      "feature_class": "P",
      "county": null,
      "gnis_id": 5112965
    },
    {
      "name": "Cold Spring",
      "status": "village",
      "state": "New York",
      "slug": "cold-spring-new-york",
      "population": 1995,
      "lat": 41.42009,
      "lon": -73.95458,
      "feature_class": "P",
      "county": null,
      "gnis_id": 5113196
    },
    {
      "name": "Richfield Springs",
      "status": "village",
      "state": "New York",
      "slug": "richfield-springs-new-york",
      "population": 1090,
      "lat": 42.85341,
      "lon": -74.98543,
      "feature_class": "P",
      "county": null,
      "gnis_id": 5133795
    },
    {
      "name": "Saratoga Springs",
      "status": "city",
      "state": "New York",
      "slug": "saratoga-springs-new-york",
      "population": 28741,
      "lat": 43.08313,
      "lon": -73.78457,
      "feature_class": "P",
      "county": null,
      "gnis_id": 5136334
    },
    {
      "name": "Sharon Springs",
      "status": "village",
      "state": "New York",
      "slug": "sharon-springs-new-york",
      "population": 500,
      "lat": 42.79591,
      "lon": -74.61709,
      "feature_class": "P",
      "county": null,
      "gnis_id": 5137788
    },
    {
      "name": "Silver Springs",
      "status": "village",
      "state": "New York",
      "slug": "silver-springs-new-york",
      "population": 717,
      "lat": 42.66062,
      "lon": -78.08556,
      "feature_class": "P",
      "county": null,
      "gnis_id": 5138211
    },
    {
      "name": "Spring Valley",
      "status": "village",
      "state": "New York",
      "slug": "spring-valley-new-york",
      "population": 33637,
      "lat": 41.11315,
      "lon": -74.04375,
      "feature_class": "P",
      "county": null,
      "gnis_id": 5139301
    },
    {
      "name": "Springville",
      "status": "village",
      "state": "New York",
      "slug": "springville-new-york",
      "population": 4194,
      "lat": 42.5084,
      "lon": -78.66725,
      "feature_class": "P",
      "county": null,
      "gnis_id": 5139298
    },
    {
      "name": "Union Springs",
      "status": "village",
      "state": "New York",
      "slug": "union-springs-new-york",
      "population": 1078,
      "lat": 42.83979,
      "lon": -76.69328,
      "feature_class": "P",
      "county": null,
      "gnis_id": 5141912
    }
  ],
  "North Carolina": [
    {
      "name": "Boiling Spring Lakes",
      "status": "city",
      "state": "North Carolina",
      "slug": "boiling-spring-lakes-north-carolina",
      "population": 6738,
      "lat": 34.03045,
      "lon": -78.06721,
      "feature_class": "P",
      "county": null,
      "gnis_id": 4456593
    },
    {
      "name": "Boiling Springs",
      "status": "town",
      "state": "North Carolina",
      "slug": "boiling-springs-north-carolina",
      "population": 4759,
      "lat": 35.25429,
      "lon": -81.66704,
      "feature_class": "P",
      "county": null,
      "gnis_id": 4456595
    },
    {
      "name": "Connelly Springs",
      "status": "town",
      "state": "North Carolina",
      "slug": "connelly-springs-north-carolina",
      "population": 1545,
      "lat": 35.74291,
      "lon": -81.51343,
      "feature_class": "P",
      "county": null,
      "gnis_id": 4461668
    },
    {
      "name": "Holly Springs",
      "status": "town",
      "state": "North Carolina",
      "slug": "holly-springs-north-carolina",
      "population": 48674,
      "lat": 35.65127,
      "lon": -78.83362,
      "feature_class": "P",
      "county": null,
      "gnis_id": 4471641
    },
    {
      "name": "Hot Springs",
      "status": "town",
      "state": "North Carolina",
      "slug": "hot-springs-north-carolina",
      "population": 543,
      "lat": 35.89263,
      "lon": -82.83112,
      "feature_class": "P",
      "county": null,
      "gnis_id": 4472119
    },
    {
      "name": "Mineral Springs",
      "status": "town",
      "state": "North Carolina",
      "slug": "mineral-springs-north-carolina",
      "population": 3456,
      "lat": 34.93793,
      "lon": -80.66868,
      "feature_class": "P",
      "county": null,
      "gnis_id": 4479702
    },
    {
      "name": "Patterson Springs",
      "status": "town",
      "state": "North Carolina",
      "slug": "patterson-springs-north-carolina",
      "population": 581,
      "lat": 35.23541,
      "lon": -81.51453,
      "feature_class": "P",
      "county": null,
      "gnis_id": 4484262
    },
    {
      "name": "Red Springs",
      "status": "town",
      "state": "North Carolina",
      "slug": "red-springs-north-carolina",
      "population": 3181,
      "lat": 34.81516,
      "lon": -79.18309,
      "feature_class": "P",
      "county": null,
      "gnis_id": 4487421
    },
    {
      "name": "Seven Springs",
      "status": "town",
      "state": "North Carolina",
      "slug": "seven-springs-north-carolina",
      "population": 57,
      "lat": 35.22739,
      "lon": -77.84693,
      "feature_class": "P",
      "county": null,
      "gnis_id": 4490855
    },
    {
      "name": "Spring Hope",
      "status": "town",
      "state": "North Carolina",
      "slug": "spring-hope-north-carolina",
      "population": 1358,
      "lat": 35.94515,
      "lon": -78.11193,
      "feature_class": "P",
      "county": null,
      "gnis_id": 4493028
    },
    {
      "name": "Spring Lake",
      "status": "town",
      "state": "North Carolina",
      "slug": "spring-lake-north-carolina",
      "population": 11530,
      "lat": 35.16794,
      "lon": -78.97281,
      "feature_class": "P",
      "county": null,
      "gnis_id": 4493035
    }
  ],
  "North Dakota": [
    {
      "name": "Springbrook",
      "status": "city",
      "state": "North Dakota",
      "slug": "springbrook-north-dakota",
      "population": 35,
      "lat": 48.24074,
      "lon": -103.40993,
      "feature_class": "A",
      "county": null,
      "gnis_id": 5692298
    }
  ],
  "Ohio": [
    {
      "name": "Green Springs",
      "status": "village",
      "state": "Ohio",
      "slug": "green-springs-ohio",
      "population": 1302,
      "lat": 41.25616,
      "lon": -83.05158,
      "feature_class": "P",
      "county": null,
      "gnis_id": 5156409
    },
    {
      "name": "Magnetic Springs",
      "status": "village",
      "state": "Ohio",
      "slug": "magnetic-springs-ohio",
      "population": 302,
      "lat": 40.35284,
      "lon": -83.26131,
      "feature_class": "P",
      "county": null,
      "gnis_id": 5161619
    },
    {
      "name": "Sinking Spring",
      "status": "village",
      "state": "Ohio",
      "slug": "sinking-spring-ohio",
      "population": 122,
      "lat": 39.07285,
      "lon": -83.38686,
      "feature_class": "P",
      "county": null,
      "gnis_id": 4524794
    },
    {
      "name": "Springboro",
      "status": "city",
      "state": "Ohio",
      "slug": "springboro-ohio",
      "population": 19646,
      "lat": 39.55228,
      "lon": -84.23327,
      "feature_class": "P",
      "county": null,
      "gnis_id": 4525304
    },
    {
      "name": "Springdale",
      "status": "city",
      "state": "Ohio",
      "slug": "springdale-ohio",
      "population": 11183,
      "lat": 39.287,
      "lon": -84.48522,
      "feature_class": "P",
      "county": null,
      "gnis_id": 4525310
    },
    {
      "name": "Springfield",
      "status": "city",
      "state": "Ohio",
      "slug": "springfield-ohio",
      "population": 58138,
      "lat": 39.92423,
      "lon": -83.80882,
      "feature_class": "P",
      "county": null,
      "gnis_id": 4525353
    },
    {
      "name": "Spring Valley",
      "status": "village",
      "state": "Ohio",
      "slug": "spring-valley-ohio",
      "population": 423,
      "lat": 39.60895,
      "lon": -84.00771,
      "feature_class": "P",
      "county": null,
      "gnis_id": 4525289
    },
    {
      "name": "Yellow Springs",
      "status": "village",
      "state": "Ohio",
      "slug": "yellow-springs-ohio",
      "population": 3756,
      "lat": 39.80645,
      "lon": -83.88687,
      "feature_class": "P",
      "county": null,
      "gnis_id": 4528866
    }
  ],
  "Oklahoma": [
    {
      "name": "Cleo Springs",
      "status": "town",
      "state": "Oklahoma",
      "slug": "cleo-springs-oklahoma",
      "population": 277,
      "lat": 36.40531,
      "lon": -98.44063,
      "feature_class": "P",
      "county": null,
      "gnis_id": 4533680
    },
    {
      "name": "Rush Springs",
      "status": "town",
      "state": "Oklahoma",
      "slug": "rush-springs-oklahoma",
      "population": 1024,
      "lat": 34.78257,
      "lon": -97.95698,
      "feature_class": "P",
      "county": null,
      "gnis_id": 4549984
    },
    {
      "name": "Sand Springs",
      "status": "city",
      "state": "Oklahoma",
      "slug": "sand-springs-oklahoma",
      "population": 20330,
      "lat": 36.13981,
      "lon": -96.10889,
      "feature_class": "P",
      "county": null,
      "gnis_id": 4550659
    },
    {
      "name": "Springer",
      "status": "town",
      "state": "Oklahoma",
      "slug": "springer-oklahoma",
      "population": 707,
      "lat": 34.31454,
      "lon": -97.14279,
      "feature_class": "P",
      "county": null,
      "gnis_id": 4552061
    },
    {
      "name": "West Siloam Springs",
      "status": "town",
      "state": "Oklahoma",
      "slug": "west-siloam-springs-oklahoma",
      "population": 1068,
      "lat": 36.17619,
      "lon": -94.57494,
      "feature_class": "P",
      "county": null,
      "gnis_id": 4555100
    }
  ],
  "Oregon": [
    {
      "name": "Springfield",
      "status": "city",
      "state": "Oregon",
      "slug": "springfield-oregon",
      "population": 61182,
      "lat": 44.05207,
      "lon": -123.08675,
      "feature_class": "P",
      "county": null,
      "gnis_id": 5725846
    }
  ],
  "Pennsylvania": [
    {
      "name": "Cambridge Springs",
      "status": "borough",
      "state": "Pennsylvania",
      "slug": "cambridge-springs-pennsylvania",
      "population": 2333,
      "lat": 41.80367,
      "lon": -80.05644,
      "feature_class": "P",
      "county": null,
      "gnis_id": 5182842
    },
    {
      "name": "Chest Springs",
      "status": "borough",
      "state": "Pennsylvania",
      "slug": "chest-springs-pennsylvania",
      "population": 137,
      "lat": 40.58007,
      "lon": -78.60696,
      "feature_class": "P",
      "county": null,
      "gnis_id": 5184075
    },
    {
      "name": "Frankfort Springs",
      "status": "borough",
      "state": "Pennsylvania",
      "slug": "frankfort-springs-pennsylvania",
      "population": 112,
      "lat": 40.47896,
      "lon": -80.44257,
      "feature_class": "P",
      "county": null,
      "gnis_id": 5190318
    },
    {
      "name": "Mount Holly Springs",
      "status": "borough",
      "state": "Pennsylvania",
      "slug": "mount-holly-springs-pennsylvania",
      "population": 2024,
      "lat": 40.11842,
      "lon": -77.18998,
      "feature_class": "P",
      "county": null,
      "gnis_id": 5202164
    },
    {
      "name": "Roaring Spring",
      "status": "borough",
      "state": "Pennsylvania",
      "slug": "roaring-spring-pennsylvania",
      "population": 2297,
      "lat": 40.33591,
      "lon": -78.39085,
      "feature_class": "P",
      "county": null,
      "gnis_id": 5208552
    },
    {
      "name": "Seven Springs",
      "status": "borough",
      "state": "Pennsylvania",
      "slug": "seven-springs-pennsylvania",
      "population": 24,
      "lat": 40.02313,
      "lon": -79.29726,
      "feature_class": "P",
      "county": null,
      "gnis_id": 5211478
    },
    {
      "name": "Sinking Spring",
      "status": "borough",
      "state": "Pennsylvania",
      "slug": "sinking-spring-pennsylvania",
      "population": 4327,
      "lat": 40.32731,
      "lon": -76.01105,
      "feature_class": "P",
      "county": null,
      "gnis_id": 5212342
    },
    {
      "name": "Springboro",
      "status": "borough",
      "state": "Pennsylvania",
      "slug": "springboro-pennsylvania",
      "population": 369,
      "lat": 41.80061,
      "lon": -80.36895,
      "feature_class": "P",
      "county": null,
      "gnis_id": 5213443
    },
    {
      "name": "Spring City",
      "status": "borough",
      "state": "Pennsylvania",
      "slug": "spring-city-pennsylvania",
      "population": 3925,
      "lat": 40.17677,
      "lon": -75.54769,
      "feature_class": "P",
      "county": null,
      "gnis_id": 5213317
    },
    {
      "name": "Springdale",
      "status": "borough",
      "state": "Pennsylvania",
      "slug": "springdale-pennsylvania",
      "population": 3272,
      "lat": 40.5409,
      "lon": -79.78394,
      "feature_class": "P",
      "county": null,
      "gnis_id": 5213447
    },
    {
      "name": "Spring Grove",
      "status": "borough",
      "state": "Pennsylvania",
      "slug": "spring-grove-pennsylvania",
      "population": 2521,
      "lat": 39.87454,
      "lon": -76.86581,
      "feature_class": "P",
      "county": null,
      "gnis_id": 4561391
    },
    {
      "name": "Three Springs",
      "status": "borough",
      "state": "Pennsylvania",
      "slug": "three-springs-pennsylvania",
      "population": 432,
      "lat": 40.19508,
      "lon": -77.98306,
      "feature_class": "P",
      "county": null,
      "gnis_id": 5215591
    },
    {
      "name": "York Springs",
      "status": "borough",
      "state": "Pennsylvania",
      "slug": "york-springs-pennsylvania",
      "population": 703,
      "lat": 40.00898,
      "lon": -77.11554,
      "feature_class": "P",
      "county": null,
      "gnis_id": 5220369
    }
  ],
  "South Carolina": [
    {
      "name": "Heath Springs",
      "status": "town",
      "state": "South Carolina",
      "slug": "heath-springs-south-carolina",
      "population": 852,
      "lat": 34.59321,
      "lon": -80.67535,
      "feature_class": "P",
      "county": null,
      "gnis_id": 4581361
    },
    {
      "name": "Ridge Spring",
      "status": "town",
      "state": "South Carolina",
      "slug": "ridge-spring-south-carolina",
      "population": 588,
      "lat": 33.84542,
      "lon": -81.66177,
      "feature_class": "P",
      "county": null,
      "gnis_id": 4592904
    },
    {
      "name": "Springdale",
      "status": "town",
      "state": "South Carolina",
      "slug": "springdale-south-carolina",
      "population": 2756,
      "lat": 34.68931,
      "lon": -80.78618,
      "feature_class": "P",
      "county": null,
      "gnis_id": 4597397
    },
    {
      "name": "Springfield",
      "status": "town",
      "state": "South Carolina",
      "slug": "springfield-south-carolina",
      "population": 437,
      "lat": 33.49682,
      "lon": -81.27927,
      "feature_class": "P",
      "county": null,
      "gnis_id": 4597418
    }
  ],
  "South Dakota": [
    {
      "name": "Hot Springs",
      "status": "city",
      "state": "South Dakota",
      "slug": "hot-springs-south-dakota",
      "population": 3608,
      "lat": 43.43165,
      "lon": -103.47436,
      "feature_class": "P",
      "county": null,
      "gnis_id": 5765751
    },
    {
      "name": "Springfield",
      "status": "city",
      "state": "South Dakota",
      "slug": "springfield-south-dakota",
      "population": 1912,
      "lat": 42.85417,
      "lon": -97.89729,
      "feature_class": "P",
      "county": null,
      "gnis_id": 5232077
    },
    {
      "name": "Valley Springs",
      "status": "city",
      "state": "South Dakota",
      "slug": "valley-springs-south-dakota",
      "population": 872,
      "lat": 43.58247,
      "lon": -96.46782,
      "feature_class": "P",
      "county": null,
      "gnis_id": 5232557
    },
    {
      "name": "Wessington Springs",
      "status": "city",
      "state": "South Dakota",
      "slug": "wessington-springs-south-dakota",
      "population": 773,
      "lat": 44.07916,
      "lon": -98.56954,
      "feature_class": "P",
      "county": null,
      "gnis_id": 5232802
    }
  ],
  "Tennessee": [
    {
      "name": "Beersheba Springs",
      "status": "town",
      "state": "Tennessee",
      "slug": "beersheba-springs-tennessee",
      "population": 455,
      "lat": 35.46674,
      "lon": -85.65414,
      "feature_class": "P",
      "county": null,
      "gnis_id": 4605169
    },
    {
      "name": "Bethel Springs",
      "status": "town",
      "state": "Tennessee",
      "slug": "bethel-springs-tennessee",
      "population": 748,
      "lat": 35.23369,
      "lon": -88.60644,
      "feature_class": "P",
      "county": null,
      "gnis_id": 4605907
    },
    {
      "name": "Estill Springs",
      "status": "town",
      "state": "Tennessee",
      "slug": "estill-springs-tennessee",
      "population": 2698,
      "lat": 35.27064,
      "lon": -86.12804,
      "feature_class": "P",
      "county": null,
      "gnis_id": 4621192
    },
    {
      "name": "Kingston Springs",
      "status": "town",
      "state": "Tennessee",
      "slug": "kingston-springs-tennessee",
      "population": 2769,
      "lat": 36.102,
      "lon": -87.11501,
      "feature_class": "P",
      "county": null,
      "gnis_id": 4634683
    },
    {
      "name": "Oliver Springs",
      "status": "town",
      "state": "Tennessee",
      "slug": "oliver-springs-tennessee",
      "population": 3433,
      "lat": 36.04452,
      "lon": -84.34437,
      "feature_class": "P",
      "county": null,
      "gnis_id": 4647282
    },
    {
      "name": "Red Boiling Springs",
      "status": "city",
      "state": "Tennessee",
      "slug": "red-boiling-springs-tennessee",
      "population": 1214,
      "lat": 36.53339,
      "lon": -85.84998,
      "feature_class": "P",
      "county": null,
      "gnis_id": 4652359
    },
    {
      "name": "Spring City",
      "status": "town",
      "state": "Tennessee",
      "slug": "spring-city-tennessee",
      "population": 1996,
      "lat": 35.69201,
      "lon": -84.86078,
      "feature_class": "P",
      "county": null,
      "gnis_id": 4659350
    },
    {
      "name": "Springfield",
      "status": "city",
      "state": "Tennessee",
      "slug": "springfield-tennessee",
      "population": 19842,
      "lat": 36.50921,
      "lon": -86.885,
      "feature_class": "P",
      "county": null,
      "gnis_id": 4659557
    },
    {
      "name": "Spring Hill",
      "status": "city",
      "state": "Tennessee",
      "slug": "spring-hill-tennessee",
      "population": 59398,
      "lat": 35.75118,
      "lon": -86.93,
      "feature_class": "P",
      "county": null,
      "gnis_id": 4659446
    }
  ],
  "Texas": [
    {
      "name": "Balch Springs",
      "status": "city",
      "state": "Texas",
      "slug": "balch-springs-texas",
      "population": 27307,
      "lat": 32.72874,
      "lon": -96.62277,
      "feature_class": "P",
      "county": null,
      "gnis_id": 4672059
    },
    {
      "name": "Big Spring",
      "status": "city",
      "state": "Texas",
      "slug": "big-spring-texas",
      "population": 22541,
      "lat": 32.2504,
      "lon": -101.47874,
      "feature_class": "P",
      "county": null,
      "gnis_id": 5517061
    },
    {
      "name": "Buffalo Springs Lake",
      "status": "village",
      "state": "Texas",
      "slug": "buffalo-springs-lake-texas",
      "population": 449,
      "lat": 33.53453,
      "lon": -101.69211,
      "feature_class": "H",
      "county": null,
      "gnis_id": 5517815
    },
    {
      "name": "Carrizo Springs",
      "status": "city",
      "state": "Texas",
      "slug": "carrizo-springs-texas",
      "population": 4586,
      "lat": 28.52193,
      "lon": -99.86061,
      "feature_class": "P",
      "county": null,
      "gnis_id": 4679148
    },
    {
      "name": "Coldspring",
      "status": "city",
      "state": "Texas",
      "slug": "coldspring-texas",
      "population": 882,
      "lat": 30.59242,
      "lon": -95.12938,
      "feature_class": "P",
      "county": null,
      "gnis_id": 4682352
    },
    {
      "name": "Dripping Springs",
      "status": "city",
      "state": "Texas",
      "slug": "dripping-springs-texas",
      "population": 10165,
      "lat": 30.19021,
      "lon": -98.08668,
      "feature_class": "P",
      "county": null,
      "gnis_id": 4686903
    },
    {
      "name": "Hughes Springs",
      "status": "city",
      "state": "Texas",
      "slug": "hughes-springs-texas",
      "population": 1533,
      "lat": 32.99846,
      "lon": -94.63076,
      "feature_class": "P",
      "county": null,
      "gnis_id": 4699392
    },
    {
      "name": "Payne Springs",
      "status": "town",
      "state": "Texas",
      "slug": "payne-springs-texas",
      "population": 772,
      "lat": 32.2782,
      "lon": -96.06692,
      "feature_class": "P",
      "county": null,
      "gnis_id": 4717990
    },
    {
      "name": "Richland Springs",
      "status": "town",
      "state": "Texas",
      "slug": "richland-springs-texas",
      "population": 246,
      "lat": 31.26961,
      "lon": -98.94505,
      "feature_class": "P",
      "county": null,
      "gnis_id": 4722677
    },
    {
      "name": "Roaring Springs",
      "status": "town",
      "state": "Texas",
      "slug": "roaring-springs-texas",
      "population": 204,
      "lat": 33.89952,
      "lon": -100.85708,
      "feature_class": "P",
      "county": null,
      "gnis_id": 5529379
    },
    {
      "name": "Rocksprings",
      "status": "town",
      "state": "Texas",
      "slug": "rocksprings-texas",
      "population": 847,
      "lat": 30.01576,
      "lon": -100.20536,
      "feature_class": "P",
      "county": null,
      "gnis_id": 5529514
    },
    {
      "name": "Spring Branch",
      "status": "city",
      "state": "Texas",
      "slug": "spring-branch-texas",
      "population": 254,
      "lat": 29.88994,
      "lon": -98.4253,
      "feature_class": "P",
      "county": null,
      "gnis_id": 4733642
    },
    {
      "name": "Springlake",
      "status": "town",
      "state": "Texas",
      "slug": "springlake-texas",
      "population": 141,
      "lat": 34.23175,
      "lon": -102.30602,
      "feature_class": "P",
      "county": null,
      "gnis_id": 5531644
    },
    {
      "name": "Springtown",
      "status": "city",
      "state": "Texas",
      "slug": "springtown-texas",
      "population": 4843,
      "lat": 32.96596,
      "lon": -97.68364,
      "feature_class": "P",
      "county": null,
      "gnis_id": 4733940
    },
    {
      "name": "Spring Valley Village",
      "status": "city",
      "state": "Texas",
      "slug": "spring-valley-village-texas",
      "population": 4394,
      "lat": 29.78984,
      "lon": -95.50408,
      "feature_class": "A",
      "county": null,
      "gnis_id": 7174487
    },
    {
      "name": "Sulphur Springs",
      "status": "city",
      "state": "Texas",
      "slug": "sulphur-springs-texas",
      "population": 16891,
      "lat": 33.15984,
      "lon": -95.62135,
      "feature_class": "S",
      "county": null,
      "gnis_id": 4734925
    },
    {
      "name": "Walnut Springs",
      "status": "city",
      "state": "Texas",
      "slug": "walnut-springs-texas",
      "population": 898,
      "lat": 29.56884,
      "lon": -97.96473,
      "feature_class": "P",
      "county": null,
      "gnis_id": 4727756
    }
  ],
  "Utah": [
    {
      "name": "Saratoga Springs",
      "status": "city",
      "state": "Utah",
      "slug": "saratoga-springs-utah",
      "population": 57411,
      "lat": 40.34912,
      "lon": -111.90466,
      "feature_class": "P",
      "county": null,
      "gnis_id": 5781087
    },
    {
      "name": "Spring City",
      "status": "city",
      "state": "Utah",
      "slug": "spring-city-utah",
      "population": 1026,
      "lat": 39.48246,
      "lon": -111.49602,
      "feature_class": "P",
      "county": null,
      "gnis_id": 5547460
    },
    {
      "name": "Springdale",
      "status": "town",
      "state": "Utah",
      "slug": "springdale-utah",
      "population": 595,
      "lat": 37.18887,
      "lon": -112.99855,
      "feature_class": "P",
      "county": null,
      "gnis_id": 5547516
    },
    {
      "name": "Springville",
      "status": "city",
      "state": "Utah",
      "slug": "springville-utah",
      "population": 36027,
      "lat": 40.16523,
      "lon": -111.61075,
      "feature_class": "P",
      "county": null,
      "gnis_id": 5781993
    }
  ],
  "Virginia": [
    {
      "name": "Glade Spring",
      "status": "town",
      "state": "Virginia",
      "slug": "glade-spring-virginia",
      "population": 1368,
      "lat": 36.79122,
      "lon": -81.77123,
      "feature_class": "P",
      "county": null,
      "gnis_id": 4760971
    }
  ],
  "Washington": [
    {
      "name": "Springdale",
      "status": "town",
      "state": "Washington",
      "slug": "springdale-washington",
      "population": 360,
      "lat": 48.05739,
      "lon": -117.74135,
      "feature_class": "P",
      "county": null,
      "gnis_id": 5811837
    }
  ],
  "West Virginia": [
    {
      "name": "Addison (Webster Springs)",
      "status": "town",
      "state": "West Virginia",
      "slug": "addison-(webster-springs)-west-virginia",
      "population": 679,
      "lat": 38.47927,
      "lon": -80.41342,
      "feature_class": "P",
      "county": null,
      "gnis_id": 4826648
    },
    {
      "name": "Bath (Berkeley Springs)",
      "status": "town",
      "state": "West Virginia",
      "slug": "bath-(berkeley-springs)-west-virginia",
      "population": 752,
      "lat": 39.6248,
      "lon": -78.22472,
      "feature_class": "P",
      "county": null,
      "gnis_id": 4798697
    },
    {
      "name": "Falling Spring",
      "status": "town",
      "state": "West Virginia",
      "slug": "falling-spring-west-virginia",
      "population": 166,
      "lat": 37.99179,
      "lon": -80.35396,
      "feature_class": "P",
      "county": null,
      "gnis_id": 4805587
    },
    {
      "name": "White Sulphur Springs",
      "status": "city",
      "state": "West Virginia",
      "slug": "white-sulphur-springs-west-virginia",
      "population": 2154,
      "lat": 37.79651,
      "lon": -80.29757,
      "feature_class": "P",
      "county": null,
      "gnis_id": 4827104
    }
  ],
  "Wisconsin": [
    {
      "name": "Rock Springs",
      "status": "village",
      "state": "Wisconsin",
      "slug": "rock-springs-wisconsin",
      "population": 351,
      "lat": 43.478,
      "lon": -89.916,
      "feature_class": "P",
      "county": null,
      "gnis_id": 5269294
    },
    {
      "name": "Solon Springs",
      "status": "village",
      "state": "Wisconsin",
      "slug": "solon-springs-wisconsin",
      "population": 679,
      "lat": 46.31834,
      "lon": -91.81391,
      "feature_class": "S",
      "county": null,
      "gnis_id": 5273608
    },
    {
      "name": "Spring Green",
      "status": "village",
      "state": "Wisconsin",
      "slug": "spring-green-wisconsin",
      "population": 1573,
      "lat": 43.21163,
      "lon": -90.18962,
      "feature_class": "S",
      "county": null,
      "gnis_id": 5276122
    },
    {
      "name": "Spring Valley",
      "status": "village",
      "state": "Wisconsin",
      "slug": "spring-valley-wisconsin",
      "population": 1446,
      "lat": 44.84524,
      "lon": -92.2388,
      "feature_class": "P",
      "county": null,
      "gnis_id": 5274288
    }
  ],
  "Wyoming": [
    {
      "name": "Lost Springs",
      "status": "town",
      "state": "Wyoming",
      "slug": "lost-springs-wyoming",
      "population": 4,
      "lat": 42.76552,
      "lon": -104.92525,
      "feature_class": "P",
      "county": null,
      "gnis_id": 5831137
    },
    {
      "name": "Rock Springs",
      "status": "city",
      "state": "Wyoming",
      "slug": "rock-springs-wyoming",
      "population": 22967,
      "lat": 41.58746,
      "lon": -109.2029,
      "feature_class": "P",
      "county": null,
      "gnis_id": 5836898
    }
  ]
}